data collected at 2021-02-19 11:44:14.045538
{'status': 'ok', 'data': [{'lat': 28.376058, 'lon': 77.315741, 'uid': 12813, 'aqi': '255', 'station': {'name': 'Sector 11, Faridabad, India', 'time': '2021-02-19T08:00:00+05:30'}}, {'lat': 28.5447608, 'lon': 77.3231257, 'uid': 11863, 'aqi': '-', 'station': {'name': 'Sector - 125, Noida, India', 'time': '2021-02-13T16:00:00+05:30'}}, {'lat': 28.582846, 'lon': 77.234366, 'uid': 10705, 'aqi': '205', 'station': {'name': 'Jawaharlal Nehru Stadium, Delhi, Delhi, India', 'time': '2021-02-19T08:00:00+05:30'}}, {'lat': 28.63576, 'lon': 77.22445, 'uid': 7024, 'aqi': '238', 'station': {'name': 'New Delhi US Embassy, India (नई दिल्ली अमेरिकी दूतावास)', 'time': '2021-02-19T03:00:00+05:30'}}, {'lat': 28.69572, 'lon': 77.181295, 'uid': 10115, 'aqi': '272', 'station': {'name': 'Satyawati College, Delhi, Delhi, India', 'time': '2021-02-19T07:00:00+05:30'}}, {'lat': 28.725645, 'lon': 77.749675, 'uid': 11318, 'aqi': '112', 'station': {'name': 'Anand Vihar, Hapur, India', 'time': '2021-02-19T08:00:00+05:30'}}, {'lat': 28.6245479, 'lon': 77.3577104, 'uid': 11865, 'aqi': '219', 'station': {'name': 'Sector - 62, Noida, India', 'time': '2021-02-19T08:00:00+05:30'}}, {'lat': 28.3419248, 'lon': 77.319699, 'uid': 12434, 'aqi': '191', 'station': {'name': 'Nathu Colony, Ballabgarh, India', 'time': '2021-02-19T08:00:00+05:30'}}, {'lat': 28.68241, 'lon': 77.030469, 'uid': 10708, 'aqi': '256', 'station': {'name': 'Mundka, Delhi, Delhi, India', 'time': '2021-02-19T07:00:00+05:30'}}, {'lat': 29.0272, 'lon': 77.0669191, 'uid': 11861, 'aqi': '98', 'station': {'name': 'Murthal, Sonipat, India', 'time': '2021-02-19T08:00:00+05:30'}}, {'lat': 28.576909, 'lon': 77.075898, 'uid': 10119, 'aqi': '235', 'station': {'name': 'National Institute of Malaria Research, Sector 8, Dwarka, Delhi, Delhi, India', 'time': '2021-02-19T08:00:00+05:30'}}, {'lat': 28.6701, 'lon': 76.9254, 'uid': 12447, 'aqi': '147', 'station': {'name': 'Arya Nagar, Bahadurgarh, India', 'time': '2021-02-19T08:00:00+05:30'}}, {'lat': 28.422681, 'lon': 77.148944, 'uid': 11300, 'aqi': '199', 'station': {'name': 'NISE Gwal Pahari, Gurugram, India', 'time': '2021-02-19T09:00:00+05:30'}}, {'lat': 28.620171, 'lon': 77.287705, 'uid': 10704, 'aqi': '249', 'station': {'name': 'Mother Dairy Plant, Parparganj, Delhi, Delhi, India', 'time': '2021-02-19T08:00:00+05:30'}}, {'lat': 28.566827, 'lon': 77.251418, 'uid': 10112, 'aqi': '299', 'station': {'name': 'PGDAV College, Sriniwaspuri, Delhi, Delhi, India', 'time': '2021-02-19T08:00:00+05:30'}}, {'lat': 28.566008, 'lon': 77.176743, 'uid': 2556, 'aqi': '296', 'station': {'name': 'R.K. Puram, Delhi, Delhi, India', 'time': '2021-02-19T08:00:00+05:30'}}, {'lat': 28.630362, 'lon': 77.197293, 'uid': 2554, 'aqi': '268', 'station': {'name': 'Mandir Marg, Delhi, Delhi, India', 'time': '2021-02-19T08:00:00+05:30'}}, {'lat': 28.636997, 'lon': 77.172248, 'uid': 10124, 'aqi': '225', 'station': {'name': 'Pusa, Delhi, Delhi, India', 'time': '2021-02-19T08:00:00+05:30'}}, {'lat': 28.672114, 'lon': 77.313832, 'uid': 10118, 'aqi': '240', 'station': {'name': 'ITI Shahdra, Jhilmil Industrial Area, Delhi, Delhi, India', 'time': '2021-02-19T08:00:00+05:30'}}, {'lat': 28.572714, 'lon': 76.933433, 'uid': 10120, 'aqi': '149', 'station': {'name': 'Bramprakash Ayurvedic Hospital, Najafgarh, Delhi, Delhi, India', 'time': '2021-02-19T08:00:00+05:30'}}, {'lat': 28.999264, 'lon': 77.7590354, 'uid': 12432, 'aqi': '208', 'station': {'name': 'Ganga Nagar, Meerut, India', 'time': '2021-02-19T08:00:00+05:30'}}, {'lat': 28.4275, 'lon': 77.1465, 'uid': 12890, 'aqi': '215', 'station': {'name': 'Teri Gram, Gurugram, India', 'time': '2021-02-19T08:00:00+05:30'}}, {'lat': 28.360699, 'lon': 76.93609, 'uid': 12445, 'aqi': '227', 'station': {'name': 'Sector-2 IMT, Manesar, India', 'time': '2021-02-19T08:00:00+05:30'}}, {'lat': 29.0002662, 'lon': 76.9997466, 'uid': 11858, 'aqi': '103', 'station': {'name': 'Rishi Nagar, Kaithal, India', 'time': '2021-02-19T07:00:00+05:30'}}, {'lat': 29.06351, 'lon': 77.709723, 'uid': 12430, 'aqi': '182', 'station': {'name': 'Pallavpuram Phase 2, Meerut, India', 'time': '2021-02-19T08:00:00+05:30'}}, {'lat': 28.39072, 'lon': 77.30059, 'uid': 12889, 'aqi': '202', 'station': {'name': 'New Industrial Town, Faridabad, India', 'time': '2021-02-19T08:00:00+05:30'}}, {'lat': 28.974801, 'lon': 77.213357, 'uid': 11297, 'aqi': '169', 'station': {'name': 'New Collectorate, Baghpat, India', 'time': '2021-02-19T07:00:00+05:30'}}, {'lat': 28.815691, 'lon': 77.152491, 'uid': 11266, 'aqi': '170', 'station': {'name': 'Alipur, Delhi, Delhi, India', 'time': '2021-02-19T08:00:00+05:30'}}, {'lat': 28.56923, 'lon': 77.393848, 'uid': 12465, 'aqi': '384', 'station': {'name': 'Sector-116, Noida, India', 'time': '2021-02-19T08:00:00+05:30'}}, {'lat': 28.5898, 'lon': 77.3101, 'uid': 12466, 'aqi': '240', 'station': {'name': 'Sector-1, Noida, India', 'time': '2021-02-19T08:00:00+05:30'}}, {'lat': 28.732743, 'lon': 77.118788, 'uid': 10117, 'aqi': '246', 'station': {'name': 'Shaheed Sukhdev College of Business Studies, Rohini, Delhi, Delhi, India', 'time': '2021-02-19T08:00:00+05:30'}}, {'lat': 28.661975, 'lon': 77.124156, 'uid': 2555, 'aqi': '321', 'station': {'name': 'Punjabi Bagh, Delhi, Delhi, India', 'time': '2021-02-19T08:00:00+05:30'}}, {'lat': 28.820629, 'lon': 77.101099, 'uid': 10706, 'aqi': '180', 'station': {'name': 'Narela, Delhi, Delhi, India', 'time': '2021-02-19T08:00:00+05:30'}}, {'lat': 28.7757959, 'lon': 77.0462514, 'uid': 11267, 'aqi': '171', 'station': {'name': 'Pooth Khurd, Bawana, Delhi, Delhi, India', 'time': '2021-02-19T08:00:00+05:30'}}, {'lat': 28.557054, 'lon': 77.453663, 'uid': 12463, 'aqi': '418', 'station': {'name': 'Knowledge Park - V, Greater Noida, India', 'time': '2021-02-19T08:00:00+05:30'}}, {'lat': 28.499727, 'lon': 77.267095, 'uid': 10110, 'aqi': '212', 'station': {'name': 'Dr. Karni Singh Shooting Range, Delhi, Delhi, India', 'time': '2021-02-19T08:00:00+05:30'}}, {'lat': 28.612498, 'lon': 77.237388, 'uid': 10111, 'aqi': '241', 'station': {'name': 'Major Dhyan Chand National Stadium, Delhi, Delhi, India', 'time': '2021-02-19T08:00:00+05:30'}}, {'lat': 28.733016, 'lon': 77.17197, 'uid': 10113, 'aqi': '378', 'station': {'name': 'ITI Jahangirpuri, Delhi, Delhi, India', 'time': '2021-02-19T08:00:00+05:30'}}, {'lat': 28.710066, 'lon': 77.24622, 'uid': 10121, 'aqi': '-', 'station': {'name': 'Sonia Vihar Water Treatment Plant DJB, Delhi, Delhi, India', 'time': '2021-02-18T23:00:00+05:30'}}, {'lat': 28.6542593, 'lon': 77.3549349, 'uid': 11856, 'aqi': '352', 'station': {'name': 'Vasundhara, Ghaziabad, India', 'time': '2021-02-19T08:00:00+05:30'}}, {'lat': 28.4417, 'lon': 77.3217, 'uid': 12814, 'aqi': '174', 'station': {'name': 'Sector 30, Faridabad, India', 'time': '2021-02-19T08:00:00+05:30'}}, {'lat': 28.4227, 'lon': 77.0667, 'uid': 12816, 'aqi': '451', 'station': {'name': 'Sector-51, Gurugram, India', 'time': '2021-02-19T08:00:00+05:30'}}, {'lat': 28.41012222, 'lon': 77.313775, 'uid': 8672, 'aqi': '259', 'station': {'name': 'Sector16A Faridabad, Faridabad, India', 'time': '2021-02-19T07:00:00+05:30'}}, {'lat': 28.4501285, 'lon': 77.0263051, 'uid': 8685, 'aqi': '301', 'station': {'name': 'Vikas Sadan Gurgaon, Gurgaon, India', 'time': '2021-02-19T08:00:00+05:30'}}, {'lat': 28.531314, 'lon': 77.270686, 'uid': 10116, 'aqi': '282', 'station': {'name': 'DITE Okhla, Delhi, Delhi, India', 'time': '2021-02-19T08:00:00+05:30'}}, {'lat': 28.528344, 'lon': 77.189304, 'uid': 10707, 'aqi': '211', 'station': {'name': 'Sri Auribindo Marg, Delhi, Delhi, India', 'time': '2021-02-19T08:00:00+05:30'}}, {'lat': 28.645892, 'lon': 77.314853, 'uid': 2553, 'aqi': '244', 'station': {'name': 'Anand Vihar, Delhi, Delhi, India', 'time': '2021-02-19T04:00:00+05:30'}}, {'lat': 28.47272, 'lon': 77.482, 'uid': 11278, 'aqi': '-', 'station': {'name': 'Knowledge Park - III, Greater Noida, India', 'time': '2021-02-18T19:00:00+05:30'}}, {'lat': 28.685382, 'lon': 77.453839, 'uid': 11899, 'aqi': '214', 'station': {'name': 'Sanjay Nagar, Ghaziabad, India', 'time': '2021-02-19T08:00:00+05:30'}}, {'lat': 28.646233, 'lon': 77.358075, 'uid': 12435, 'aqi': '300', 'station': {'name': 'Indirapuram, Ghaziabad, India', 'time': '2021-02-19T08:00:00+05:30'}}, {'lat': 28.757294, 'lon': 77.278792, 'uid': 12452, 'aqi': '337', 'station': {'name': 'Loni, Ghaziabad, India', 'time': '2021-02-19T08:00:00+05:30'}}, {'lat': 28.700505, 'lon': 77.165603, 'uid': 10114, 'aqi': '467', 'station': {'name': 'Delhi Institute of Tool Engineering, Wazirpur, Delhi, Delhi, India', 'time': '2021-02-19T08:00:00+05:30'}}]}
